{"name":"NeedsPeerReview_Advanced","type":"FeatureCollection"
,"features":[
{"type":"Feature","geometry":{"type":"Point","coordinates":[-74.19138,42.93958]},"properties":{"link":"https://navigator.er.usgs.gov/browse/node/1944673/history","name":"Amsterdam Police Department","version":"5"}}
,{"type":"Feature","geometry":{"type":"Point","coordinates":[-76.0499649,42.0986522]},"properties":{"link":"https://navigator.er.usgs.gov/browse/node/1945143/history","name":"Endicott Police Department","version":"5"}}
,{"type":"Feature","geometry":{"type":"Point","coordinates":[-79.0527356,43.1059103]},"properties":{"link":"https://navigator.er.usgs.gov/browse/node/1943402/history","name":"Niagara Falls Police Department","version":"3"}}
,{"type":"Feature","geometry":{"type":"Point","coordinates":[-74.4217675,41.445497]},"properties":{"link":"https://navigator.er.usgs.gov/browse/node/1943695/history","name":"Middletown Police Department","version":"3"}}
,{"type":"Feature","geometry":{"type":"Point","coordinates":[-74.6444633,41.4047183]},"properties":{"link":"https://navigator.er.usgs.gov/browse/node/1944032/history","name":"Deerpark Police Department","version":"3"}}
,{"type":"Feature","geometry":{"type":"Point","coordinates":[-74.0633038,41.5316318]},"properties":{"link":"https://navigator.er.usgs.gov/browse/node/1944426/history","name":"Town of Newburgh Police Department","version":"3"}}
,{"type":"Feature","geometry":{"type":"Point","coordinates":[-73.8074612,42.3560504]},"properties":{"link":"https://navigator.er.usgs.gov/browse/node/1944933/history","name":"Coxsackie Police Dept","version":"3"}}
,{"type":"Feature","geometry":{"type":"Point","coordinates":[-74.9889151,43.0290943]},"properties":{"link":"https://navigator.er.usgs.gov/browse/node/1945233/history","name":"Herkimer County Sheriff's Office","version":"3"}}
,{"type":"Feature","geometry":{"type":"Point","coordinates":[-77.6599666,43.2632003]},"properties":{"link":"https://navigator.er.usgs.gov/browse/node/1945359/history","name":"Greece Police Department","version":"3"}}
,{"type":"Feature","geometry":{"type":"Point","coordinates":[-76.1759054,42.598767]},"properties":{"link":"https://navigator.er.usgs.gov/browse/node/1945810/history","name":"Cortland County Sheriff's Office","version":"3"}}
,{"type":"Feature","geometry":{"type":"Point","coordinates":[-73.7926852,42.7365436]},"properties":{"link":"https://navigator.er.usgs.gov/browse/node/1945982/history","name":"Colonie Police Dept","version":"3"}}
,{"type":"Feature","geometry":{"type":"Point","coordinates":[-74.9220697,42.7004144]},"properties":{"link":"https://navigator.er.usgs.gov/browse/node/1946189/history","name":"Cooperstown Police Department","version":"3"}}
,{"type":"Feature","geometry":{"type":"Point","coordinates":[-73.5893651,43.2892098]},"properties":{"link":"https://navigator.er.usgs.gov/browse/node/1946212/history","name":"Washington County Sheriff's Office","version":"3"}}
,{"type":"Feature","geometry":{"type":"Point","coordinates":[-73.8285434,41.1488559]},"properties":{"link":"https://navigator.er.usgs.gov/browse/node/1946236/history","name":"Briarcliff Manor Police Department","version":"3"}}
,{"type":"Feature","geometry":{"type":"Point","coordinates":[-78.8664935,42.9803748]},"properties":{"link":"https://navigator.er.usgs.gov/browse/node/1946584/history","name":"Town of Tonawanda Police Department","version":"3"}}
,{"type":"Feature","geometry":{"type":"Point","coordinates":[-75.2921335,43.1034976]},"properties":{"link":"https://navigator.er.usgs.gov/browse/node/1946911/history","name":"New York Mills Police Department","version":"3"}}
,{"type":"Feature","geometry":{"type":"Point","coordinates":[-73.8041783,40.8907015]},"properties":{"link":"https://navigator.er.usgs.gov/browse/node/1947152/history","name":"Pelham Manor Police Department","version":"3"}}
,{"type":"Feature","geometry":{"type":"Point","coordinates":[-74.0408344,41.1216426]},"properties":{"link":"https://navigator.er.usgs.gov/browse/node/1947311/history","name":"Spring Valley Police Department","version":"3"}}
,{"type":"Feature","geometry":{"type":"Point","coordinates":[-78.8133161,42.9301318]},"properties":{"link":"https://navigator.er.usgs.gov/browse/node/1947331/history","name":"Buffalo Police Department E District","version":"3"}}
,{"type":"Feature","geometry":{"type":"Point","coordinates":[-76.4975453,42.4373582]},"properties":{"link":"https://navigator.er.usgs.gov/browse/node/1947944/history","name":"Ithaca Police Department","version":"3"}}
,{"type":"Feature","geometry":{"type":"Point","coordinates":[-75.6527134,43.0956557]},"properties":{"link":"https://navigator.er.usgs.gov/browse/node/1948326/history","name":"Oneida Police Department","version":"3"}}
,{"type":"Feature","geometry":{"type":"Point","coordinates":[-74.624473,42.9335922]},"properties":{"link":"https://navigator.er.usgs.gov/browse/node/1948550/history","name":"Fort Plain Police Department","version":"3"}}
,{"type":"Feature","geometry":{"type":"Point","coordinates":[-79.3324714,42.440931]},"properties":{"link":"https://navigator.er.usgs.gov/browse/node/1948835/history","name":"Fredonia Police Department","version":"3"}}
,{"type":"Feature","geometry":{"type":"Point","coordinates":[-78.7434339,42.766322]},"properties":{"link":"https://navigator.er.usgs.gov/browse/node/1943097/history","name":"Orchard Park Police Department","version":"2"}}
,{"type":"Feature","geometry":{"type":"Point","coordinates":[-74.0248248,42.7025145]},"properties":{"link":"https://navigator.er.usgs.gov/browse/node/1943106/history","name":"Altamont Police Department","version":"2"}}
,{"type":"Feature","geometry":{"type":"Point","coordinates":[-78.8700581,43.0295512]},"properties":{"link":"https://navigator.er.usgs.gov/browse/node/1943121/history","name":"North Tonawanda Police Department","version":"2"}}
,{"type":"Feature","geometry":{"type":"Point","coordinates":[-77.8020641,43.1709444]},"properties":{"link":"https://navigator.er.usgs.gov/browse/node/1943231/history","name":"Ogden Police Department","version":"2"}}
,{"type":"Feature","geometry":{"type":"Point","coordinates":[-77.6957362,42.5595331]},"properties":{"link":"https://navigator.er.usgs.gov/browse/node/1943274/history","name":"Dansville Police Department","version":"2"}}
,{"type":"Feature","geometry":{"type":"Point","coordinates":[-77.061595,43.2353958]},"properties":{"link":"https://navigator.er.usgs.gov/browse/node/1943320/history","name":"Sodus Village Police Department","version":"2"}}
,{"type":"Feature","geometry":{"type":"Point","coordinates":[-73.7515964,40.9273633]},"properties":{"link":"https://navigator.er.usgs.gov/browse/node/1943389/history","name":"Larchmont Police Department","version":"2"}}
,{"type":"Feature","geometry":{"type":"Point","coordinates":[-75.1710962,44.5951506]},"properties":{"link":"https://navigator.er.usgs.gov/browse/node/1943435/history","name":"Canton Police Department","version":"2"}}
,{"type":"Feature","geometry":{"type":"Point","coordinates":[-73.994548,41.1472766]},"properties":{"link":"https://navigator.er.usgs.gov/browse/node/1943476/history","name":"Rockland County Sheriff's Office","version":"2"}}
,{"type":"Feature","geometry":{"type":"Point","coordinates":[-74.2290457,41.9749937]},"properties":{"link":"https://navigator.er.usgs.gov/browse/node/1943505/history","name":"Olive Town Police Department","version":"2"}}
,{"type":"Feature","geometry":{"type":"Point","coordinates":[-76.5107819,43.4548134]},"properties":{"link":"https://navigator.er.usgs.gov/browse/node/1943551/history","name":"Oswego Police Department","version":"2"}}
,{"type":"Feature","geometry":{"type":"Point","coordinates":[-73.6854207,42.9037141]},"properties":{"link":"https://navigator.er.usgs.gov/browse/node/1943564/history","name":"Mechanicville Police Department","version":"2"}}
,{"type":"Feature","geometry":{"type":"Point","coordinates":[-73.8104679,42.262381]},"properties":{"link":"https://navigator.er.usgs.gov/browse/node/1943565/history","name":"Athens Village Police Department","version":"2"}}
,{"type":"Feature","geometry":{"type":"Point","coordinates":[-75.7523578,43.3409884]},"properties":{"link":"https://navigator.er.usgs.gov/browse/node/1943568/history","name":"Camden Police Department","version":"2"}}
,{"type":"Feature","geometry":{"type":"Point","coordinates":[-77.7912392,42.2538152]},"properties":{"link":"https://navigator.er.usgs.gov/browse/node/1943639/history","name":"Alfred Police Department","version":"2"}}
,{"type":"Feature","geometry":{"type":"Point","coordinates":[-74.0628706,41.482181]},"properties":{"link":"https://navigator.er.usgs.gov/browse/node/1943661/history","name":"New Windsor Police Department","version":"2"}}
,{"type":"Feature","geometry":{"type":"Point","coordinates":[-73.6785999,42.7904722]},"properties":{"link":"https://navigator.er.usgs.gov/browse/node/1943680/history","name":"Waterford Police Dept","version":"2"}}
,{"type":"Feature","geometry":{"type":"Point","coordinates":[-75.3770041,43.0914877]},"properties":{"link":"https://navigator.er.usgs.gov/browse/node/1943739/history","name":"Kirkland Town Police Department","version":"2"}}
,{"type":"Feature","geometry":{"type":"Point","coordinates":[-78.8865245,43.0192743]},"properties":{"link":"https://navigator.er.usgs.gov/browse/node/1943741/history","name":"Tonawanda City Police Department","version":"2"}}
,{"type":"Feature","geometry":{"type":"Point","coordinates":[-74.6840446,41.6561685]},"properties":{"link":"https://navigator.er.usgs.gov/browse/node/1943742/history","name":"Sullivan County Sheriff's Office","version":"2"}}
,{"type":"Feature","geometry":{"type":"Point","coordinates":[-74.3603609,41.4044003]},"properties":{"link":"https://navigator.er.usgs.gov/browse/node/1943838/history","name":"Orange County Sheriff's Office","version":"2"}}
,{"type":"Feature","geometry":{"type":"Point","coordinates":[-74.3267556,41.4022076]},"properties":{"link":"https://navigator.er.usgs.gov/browse/node/1943843/history","name":"Goshen Village Police Department","version":"2"}}
,{"type":"Feature","geometry":{"type":"Point","coordinates":[-73.7349264,40.9491448]},"properties":{"link":"https://navigator.er.usgs.gov/browse/node/1943869/history","name":"Village of Mamaroneck Police Department","version":"2"}}
,{"type":"Feature","geometry":{"type":"Point","coordinates":[-74.36945,43.00668]},"properties":{"link":"https://navigator.er.usgs.gov/browse/node/1943888/history","name":"Johnstown Police Dept","version":"2"}}
,{"type":"Feature","geometry":{"type":"Point","coordinates":[-73.9209186,41.7112708]},"properties":{"link":"https://navigator.er.usgs.gov/browse/node/1943990/history","name":"Dutchess County Sheriff's Office","version":"2"}}
,{"type":"Feature","geometry":{"type":"Point","coordinates":[-77.5816727,43.2124405]},"properties":{"link":"https://navigator.er.usgs.gov/browse/node/1944048/history","name":"Irondequoit Police Department","version":"2"}}
,{"type":"Feature","geometry":{"type":"Point","coordinates":[-73.8641175,41.15856]},"properties":{"link":"https://navigator.er.usgs.gov/browse/node/1944078/history","name":"Ossining Police Department","version":"2"}}
,{"type":"Feature","geometry":{"type":"Point","coordinates":[-77.2957387,42.3497471]},"properties":{"link":"https://navigator.er.usgs.gov/browse/node/1944103/history","name":"Steuben County Sheriff's Office","version":"2"}}
,{"type":"Feature","geometry":{"type":"Point","coordinates":[-73.9880437,41.1456062]},"properties":{"link":"https://navigator.er.usgs.gov/browse/node/1944188/history","name":"Clarkstown Police Department","version":"2"}}
,{"type":"Feature","geometry":{"type":"Point","coordinates":[-75.4846517,43.7970845]},"properties":{"link":"https://navigator.er.usgs.gov/browse/node/1944201/history","name":"Lowville Village Police Department","version":"2"}}
,{"type":"Feature","geometry":{"type":"Point","coordinates":[-76.8206912,42.1668207]},"properties":{"link":"https://navigator.er.usgs.gov/browse/node/1944204/history","name":"Horseheads Police Station","version":"2"}}
,{"type":"Feature","geometry":{"type":"Point","coordinates":[-73.900078,40.8540398]},"properties":{"link":"https://navigator.er.usgs.gov/browse/node/1944252/history","name":"New York Police Department Bronx 46th Precinct","version":"2"}}
,{"type":"Feature","geometry":{"type":"Point","coordinates":[-75.2781003,43.1127909]},"properties":{"link":"https://navigator.er.usgs.gov/browse/node/1944266/history","name":"Yorkville Village Police Department","version":"2"}}
,{"type":"Feature","geometry":{"type":"Point","coordinates":[-73.3777849,43.0371406]},"properties":{"link":"https://navigator.er.usgs.gov/browse/node/1944306/history","name":"Cambridge Village Police Department","version":"2"}}
,{"type":"Feature","geometry":{"type":"Point","coordinates":[-75.0692098,43.0390893]},"properties":{"link":"https://navigator.er.usgs.gov/browse/node/1944330/history","name":"Frankfort Police Department","version":"2"}}
,{"type":"Feature","geometry":{"type":"Point","coordinates":[-78.871614,42.8930939]},"properties":{"link":"https://navigator.er.usgs.gov/browse/node/1944428/history","name":"Buffalo Police Department B District","version":"2"}}
,{"type":"Feature","geometry":{"type":"Point","coordinates":[-73.8314456,40.9354893]},"properties":{"link":"https://navigator.er.usgs.gov/browse/node/1944470/history","name":"Bronxville Police Department","version":"2"}}
,{"type":"Feature","geometry":{"type":"Point","coordinates":[-73.8397712,42.6202547]},"properties":{"link":"https://navigator.er.usgs.gov/browse/node/1944518/history","name":"Bethlehem Police Department","version":"2"}}
,{"type":"Feature","geometry":{"type":"Point","coordinates":[-75.4699856,44.3361046]},"properties":{"link":"https://navigator.er.usgs.gov/browse/node/1944539/history","name":"Gouverneur Police Department","version":"2"}}
,{"type":"Feature","geometry":{"type":"Point","coordinates":[-73.8658342,42.2204871]},"properties":{"link":"https://navigator.er.usgs.gov/browse/node/1944546/history","name":"Catskill Village Police Department","version":"2"}}
,{"type":"Feature","geometry":{"type":"Point","coordinates":[-73.9929897,41.2270388]},"properties":{"link":"https://navigator.er.usgs.gov/browse/node/1944583/history","name":"Stony Point Police Department","version":"2"}}
,{"type":"Feature","geometry":{"type":"Point","coordinates":[-76.2625193,42.1050305]},"properties":{"link":"https://navigator.er.usgs.gov/browse/node/1944597/history","name":"Owego Village Police Department","version":"2"}}
,{"type":"Feature","geometry":{"type":"Point","coordinates":[-73.9909718,42.7955089]},"properties":{"link":"https://navigator.er.usgs.gov/browse/node/1944607/history","name":"Rotterdam Police Department","version":"2"}}
,{"type":"Feature","geometry":{"type":"Point","coordinates":[-75.8523933,42.929641]},"properties":{"link":"https://navigator.er.usgs.gov/browse/node/1944617/history","name":"Cazenovia Police Department","version":"2"}}
,{"type":"Feature","geometry":{"type":"Point","coordinates":[-78.8241953,42.8484553]},"properties":{"link":"https://navigator.er.usgs.gov/browse/node/1944620/history","name":"Buffalo Police Department A District","version":"2"}}
,{"type":"Feature","geometry":{"type":"Point","coordinates":[-73.8091644,42.4693508]},"properties":{"link":"https://navigator.er.usgs.gov/browse/node/1944644/history","name":"Coeymans Police Department","version":"2"}}
,{"type":"Feature","geometry":{"type":"Point","coordinates":[-76.1371365,43.2845473]},"properties":{"link":"https://navigator.er.usgs.gov/browse/node/1944664/history","name":"Central Square Police Department","version":"2"}}
,{"type":"Feature","geometry":{"type":"Point","coordinates":[-73.7605223,42.2555541]},"properties":{"link":"https://navigator.er.usgs.gov/browse/node/1944682/history","name":"Greenport Police Dept","version":"2"}}
,{"type":"Feature","geometry":{"type":"Point","coordinates":[-74.3559676,41.3310585]},"properties":{"link":"https://navigator.er.usgs.gov/browse/node/1944802/history","name":"Florida Police Department","version":"2"}}
,{"type":"Feature","geometry":{"type":"Point","coordinates":[-75.3766231,43.1558253]},"properties":{"link":"https://navigator.er.usgs.gov/browse/node/1944846/history","name":"Oneida County Sheriff's Office","version":"2"}}
,{"type":"Feature","geometry":{"type":"Point","coordinates":[-74.2723578,41.3620058]},"properties":{"link":"https://navigator.er.usgs.gov/browse/node/1944851/history","name":"Chester Village Police Department","version":"2"}}
,{"type":"Feature","geometry":{"type":"Point","coordinates":[-73.7948601,41.2817974]},"properties":{"link":"https://navigator.er.usgs.gov/browse/node/1944868/history","name":"Yorktown Police Department","version":"2"}}
,{"type":"Feature","geometry":{"type":"Point","coordinates":[-76.1257642,43.5703833]},"properties":{"link":"https://navigator.er.usgs.gov/browse/node/1944908/history","name":"Pulaski Police Department","version":"2"}}
,{"type":"Feature","geometry":{"type":"Point","coordinates":[-73.9174909,41.5970434]},"properties":{"link":"https://navigator.er.usgs.gov/browse/node/1944934/history","name":"Wappingers Falls Police Department","version":"2"}}
,{"type":"Feature","geometry":{"type":"Point","coordinates":[-74.0284378,41.4389803]},"properties":{"link":"https://navigator.er.usgs.gov/browse/node/1944976/history","name":"Cornwall Police Department","version":"2"}}
,{"type":"Feature","geometry":{"type":"Point","coordinates":[-76.2990458,43.229287]},"properties":{"link":"https://navigator.er.usgs.gov/browse/node/1944981/history","name":"Phoenix Police Department","version":"2"}}
,{"type":"Feature","geometry":{"type":"Point","coordinates":[-74.9486765,42.6529941]},"properties":{"link":"https://navigator.er.usgs.gov/browse/node/1944992/history","name":"Otsego County Sheriff's Office","version":"2"}}
,{"type":"Feature","geometry":{"type":"Point","coordinates":[-73.7712675,41.0301533]},"properties":{"link":"https://navigator.er.usgs.gov/browse/node/1945017/history","name":"White Plains City Police Department","version":"2"}}
,{"type":"Feature","geometry":{"type":"Point","coordinates":[-79.0467811,43.2507004]},"properties":{"link":"https://navigator.er.usgs.gov/browse/node/1945040/history","name":"Youngstown Police Department","version":"2"}}
,{"type":"Feature","geometry":{"type":"Point","coordinates":[-73.9637804,42.826901]},"properties":{"link":"https://navigator.er.usgs.gov/browse/node/1945092/history","name":"Scotia Police Department","version":"2"}}
,{"type":"Feature","geometry":{"type":"Point","coordinates":[-74.9829288,44.6693662]},"properties":{"link":"https://navigator.er.usgs.gov/browse/node/1945112/history","name":"Potsdam Police Department","version":"2"}}
,{"type":"Feature","geometry":{"type":"Point","coordinates":[-77.0920406,42.1614552]},"properties":{"link":"https://navigator.er.usgs.gov/browse/node/1945133/history","name":"Painted Post Police Dept","version":"2"}}
,{"type":"Feature","geometry":{"type":"Point","coordinates":[-74.994832,42.0818606]},"properties":{"link":"https://navigator.er.usgs.gov/browse/node/1945149/history","name":"Colchester Police Dept","version":"2"}}
,{"type":"Feature","geometry":{"type":"Point","coordinates":[-75.9163549,42.1320314]},"properties":{"link":"https://navigator.er.usgs.gov/browse/node/1945156/history","name":"Sheriff Dept-Jail Office","version":"2"}}
,{"type":"Feature","geometry":{"type":"Point","coordinates":[-76.33356,43.15867]},"properties":{"link":"https://navigator.er.usgs.gov/browse/node/1945159/history","name":"Baldwinsville Police Dept","version":"2"}}
,{"type":"Feature","geometry":{"type":"Point","coordinates":[-73.7605117,42.6628095]},"properties":{"link":"https://navigator.er.usgs.gov/browse/node/1945180/history","name":"Albany Police Department","version":"2"}}
,{"type":"Feature","geometry":{"type":"Point","coordinates":[-73.8897298,41.7050397]},"properties":{"link":"https://navigator.er.usgs.gov/browse/node/1945182/history","name":"Poughkeepsie Police Department","version":"2"}}
,{"type":"Feature","geometry":{"type":"Point","coordinates":[-73.93945,41.26097]},"properties":{"link":"https://navigator.er.usgs.gov/browse/node/1945223/history","name":"Buchanan Village Police Department","version":"2"}}
,{"type":"Feature","geometry":{"type":"Point","coordinates":[-73.7532055,42.6526035]},"properties":{"link":"https://navigator.er.usgs.gov/browse/node/1945228/history","name":"Albany County Sheriff's Office","version":"2"}}
,{"type":"Feature","geometry":{"type":"Point","coordinates":[-73.5853397,43.2680559]},"properties":{"link":"https://navigator.er.usgs.gov/browse/node/1945255/history","name":"Fort Edward Police Department","version":"2"}}
,{"type":"Feature","geometry":{"type":"Point","coordinates":[-74.9966239,44.7498059]},"properties":{"link":"https://navigator.er.usgs.gov/browse/node/1945259/history","name":"Norwood Police Department","version":"2"}}
,{"type":"Feature","geometry":{"type":"Point","coordinates":[-75.1350395,42.1713118]},"properties":{"link":"https://navigator.er.usgs.gov/browse/node/1945277/history","name":"Walton Police Department","version":"2"}}
,{"type":"Feature","geometry":{"type":"Point","coordinates":[-73.9119413,41.8797066]},"properties":{"link":"https://navigator.er.usgs.gov/browse/node/1945312/history","name":"Rhinebeck State Police Department","version":"2"}}
,{"type":"Feature","geometry":{"type":"Point","coordinates":[-73.59541,42.36351]},"properties":{"link":"https://navigator.er.usgs.gov/browse/node/1945327/history","name":"Chatham Village Police","version":"2"}}
,{"type":"Feature","geometry":{"type":"Point","coordinates":[-78.8780378,42.8832402]},"properties":{"link":"https://navigator.er.usgs.gov/browse/node/1945340/history","name":"Buffalo Police Department","version":"2"}}
,{"type":"Feature","geometry":{"type":"Point","coordinates":[-73.9362017,42.7176881]},"properties":{"link":"https://navigator.er.usgs.gov/browse/node/1945424/history","name":"Guilderland Police Department","version":"2"}}
,{"type":"Feature","geometry":{"type":"Point","coordinates":[-73.8956228,40.8162718]},"properties":{"link":"https://navigator.er.usgs.gov/browse/node/1945460/history","name":"New York Police Department Bronx 41st Precinct","version":"2"}}
,{"type":"Feature","geometry":{"type":"Point","coordinates":[-73.2666178,43.4021981]},"properties":{"link":"https://navigator.er.usgs.gov/browse/node/1945481/history","name":"Granville Police Dept","version":"2"}}
,{"type":"Feature","geometry":{"type":"Point","coordinates":[-73.6588213,41.0067348]},"properties":{"link":"https://navigator.er.usgs.gov/browse/node/1945483/history","name":"Port Chester Police Department","version":"2"}}
,{"type":"Feature","geometry":{"type":"Point","coordinates":[-73.6731791,42.5516358]},"properties":{"link":"https://navigator.er.usgs.gov/browse/node/1945506/history","name":"Schodack Police Department","version":"2"}}
,{"type":"Feature","geometry":{"type":"Point","coordinates":[-73.7847644,41.0052613]},"properties":{"link":"https://navigator.er.usgs.gov/browse/node/1945533/history","name":"Scarsdale Police Department","version":"2"}}
,{"type":"Feature","geometry":{"type":"Point","coordinates":[-74.2755716,41.33987]},"properties":{"link":"https://navigator.er.usgs.gov/browse/node/1945536/history","name":"Chester Town Police Department","version":"2"}}
,{"type":"Feature","geometry":{"type":"Point","coordinates":[-74.1896762,41.5596957]},"properties":{"link":"https://navigator.er.usgs.gov/browse/node/1945559/history","name":"Walden Village Police Department","version":"2"}}
,{"type":"Feature","geometry":{"type":"Point","coordinates":[-78.7546295,42.8347158]},"properties":{"link":"https://navigator.er.usgs.gov/browse/node/1945572/history","name":"West Seneca Police Department","version":"2"}}
,{"type":"Feature","geometry":{"type":"Point","coordinates":[-73.9399,42.80988]},"properties":{"link":"https://navigator.er.usgs.gov/browse/node/1945576/history","name":"Schenectady County Sheriff's Office","version":"2"}}
,{"type":"Feature","geometry":{"type":"Point","coordinates":[-73.7417151,40.9429211]},"properties":{"link":"https://navigator.er.usgs.gov/browse/node/1945606/history","name":"Mamaroneck Police Department","version":"2"}}
,{"type":"Feature","geometry":{"type":"Point","coordinates":[-73.9253095,40.8103481]},"properties":{"link":"https://navigator.er.usgs.gov/browse/node/1945768/history","name":"New York Police Department Bronx 40th Precinct","version":"2"}}
,{"type":"Feature","geometry":{"type":"Point","coordinates":[-74.3087125,42.6722721]},"properties":{"link":"https://navigator.er.usgs.gov/browse/node/1945825/history","name":"Schoharie County Sheriff's Office","version":"2"}}
,{"type":"Feature","geometry":{"type":"Point","coordinates":[-73.7312653,42.6173453]},"properties":{"link":"https://navigator.er.usgs.gov/browse/node/1945835/history","name":"East Greenbush Police Department","version":"2"}}
,{"type":"Feature","geometry":{"type":"Point","coordinates":[-74.1214916,42.0405663]},"properties":{"link":"https://navigator.er.usgs.gov/browse/node/1945840/history","name":"Woodstock Town Police","version":"2"}}
,{"type":"Feature","geometry":{"type":"Point","coordinates":[-74.5289971,41.4781801]},"properties":{"link":"https://navigator.er.usgs.gov/browse/node/1945852/history","name":"Mount Hope Police Department","version":"2"}}
,{"type":"Feature","geometry":{"type":"Point","coordinates":[-73.7472134,42.6388522]},"properties":{"link":"https://navigator.er.usgs.gov/browse/node/1945878/history","name":"Rensselaer Police Department","version":"2"}}
,{"type":"Feature","geometry":{"type":"Point","coordinates":[-74.6767865,42.9997511]},"properties":{"link":"https://navigator.er.usgs.gov/browse/node/1945905/history","name":"St Johnsville Police Department","version":"2"}}
,{"type":"Feature","geometry":{"type":"Point","coordinates":[-78.3871722,43.2188911]},"properties":{"link":"https://navigator.er.usgs.gov/browse/node/1945908/history","name":"Medina Police Department","version":"2"}}
,{"type":"Feature","geometry":{"type":"Point","coordinates":[-73.350268,42.9008356]},"properties":{"link":"https://navigator.er.usgs.gov/browse/node/1945914/history","name":"Hoosick Falls Police Station","version":"2"}}
,{"type":"Feature","geometry":{"type":"Point","coordinates":[-77.45807,43.20916]},"properties":{"link":"https://navigator.er.usgs.gov/browse/node/1945919/history","name":"Webster Police Department","version":"2"}}
,{"type":"Feature","geometry":{"type":"Point","coordinates":[-73.9588128,42.0813792]},"properties":{"link":"https://navigator.er.usgs.gov/browse/node/1945935/history","name":"Saugerties Police Department","version":"2"}}
,{"type":"Feature","geometry":{"type":"Point","coordinates":[-74.2175897,42.2913458]},"properties":{"link":"https://navigator.er.usgs.gov/browse/node/1945940/history","name":"Windham Town Police Department","version":"2"}}
,{"type":"Feature","geometry":{"type":"Point","coordinates":[-73.644324,43.3108345]},"properties":{"link":"https://navigator.er.usgs.gov/browse/node/1945948/history","name":"Glens Falls Police Department","version":"2"}}
,{"type":"Feature","geometry":{"type":"Point","coordinates":[-78.7080775,42.1575976]},"properties":{"link":"https://navigator.er.usgs.gov/browse/node/1946002/history","name":"Salamanca Police Department","version":"2"}}
,{"type":"Feature","geometry":{"type":"Point","coordinates":[-73.7556998,42.2491573]},"properties":{"link":"https://navigator.er.usgs.gov/browse/node/1946072/history","name":"Columbia County Sheriff","version":"2"}}
,{"type":"Feature","geometry":{"type":"Point","coordinates":[-76.2979189,42.4895837]},"properties":{"link":"https://navigator.er.usgs.gov/browse/node/1946102/history","name":"Dryden Police Department","version":"2"}}
,{"type":"Feature","geometry":{"type":"Point","coordinates":[-75.7518909,43.07783]},"properties":{"link":"https://navigator.er.usgs.gov/browse/node/1946103/history","name":"Canastota Village Police Department","version":"2"}}
,{"type":"Feature","geometry":{"type":"Point","coordinates":[-78.8784323,42.9625037]},"properties":{"link":"https://navigator.er.usgs.gov/browse/node/1946148/history","name":"Kenmore Police Department","version":"2"}}
,{"type":"Feature","geometry":{"type":"Point","coordinates":[-75.2788138,43.05488]},"properties":{"link":"https://navigator.er.usgs.gov/browse/node/1946160/history","name":"New Hartford Police Department","version":"2"}}
,{"type":"Feature","geometry":{"type":"Point","coordinates":[-76.1828953,42.637108]},"properties":{"link":"https://navigator.er.usgs.gov/browse/node/1946203/history","name":"Homer Police Department","version":"2"}}
,{"type":"Feature","geometry":{"type":"Point","coordinates":[-75.3224264,43.1067874]},"properties":{"link":"https://navigator.er.usgs.gov/browse/node/1946232/history","name":"Whitestown Town Police Department","version":"2"}}
,{"type":"Feature","geometry":{"type":"Point","coordinates":[-73.8853793,42.8190889]},"properties":{"link":"https://navigator.er.usgs.gov/browse/node/1946244/history","name":"Niskayuna Police Department","version":"2"}}
,{"type":"Feature","geometry":{"type":"Point","coordinates":[-73.9195989,40.8375439]},"properties":{"link":"https://navigator.er.usgs.gov/browse/node/1946285/history","name":"New York Police Department Bronx 44th Precinct","version":"2"}}
,{"type":"Feature","geometry":{"type":"Point","coordinates":[-73.6804076,42.6864143]},"properties":{"link":"https://navigator.er.usgs.gov/browse/node/1946344/history","name":"North Greenbush Police Department","version":"2"}}
,{"type":"Feature","geometry":{"type":"Point","coordinates":[-73.9230485,41.5260617]},"properties":{"link":"https://navigator.er.usgs.gov/browse/node/1946358/history","name":"Fishkill Police Department","version":"2"}}
,{"type":"Feature","geometry":{"type":"Point","coordinates":[-74.7363745,41.8005712]},"properties":{"link":"https://navigator.er.usgs.gov/browse/node/1946454/history","name":"New York State Police Department Troop F Zone 1","version":"2"}}
,{"type":"Feature","geometry":{"type":"Point","coordinates":[-73.8266444,40.9504717]},"properties":{"link":"https://navigator.er.usgs.gov/browse/node/1946481/history","name":"Tuckahoe Police Department","version":"2"}}
,{"type":"Feature","geometry":{"type":"Point","coordinates":[-73.7861216,40.9190258]},"properties":{"link":"https://navigator.er.usgs.gov/browse/node/1946538/history","name":"New Rochelle Police Department","version":"2"}}
,{"type":"Feature","geometry":{"type":"Point","coordinates":[-73.5847201,43.3030701]},"properties":{"link":"https://navigator.er.usgs.gov/browse/node/1946547/history","name":"Hudson Falls Police Department","version":"2"}}
,{"type":"Feature","geometry":{"type":"Point","coordinates":[-78.9848005,43.1213979]},"properties":{"link":"https://navigator.er.usgs.gov/browse/node/1946579/history","name":"Town of Niagara Police Department","version":"2"}}
,{"type":"Feature","geometry":{"type":"Point","coordinates":[-77.9390957,43.2157851]},"properties":{"link":"https://navigator.er.usgs.gov/browse/node/1946601/history","name":"Brockport Police Department","version":"2"}}
,{"type":"Feature","geometry":{"type":"Point","coordinates":[-73.8091831,40.9116924]},"properties":{"link":"https://navigator.er.usgs.gov/browse/node/1946641/history","name":"Pelham Police Constable","version":"2"}}
,{"type":"Feature","geometry":{"type":"Point","coordinates":[-78.0007998,42.7193199]},"properties":{"link":"https://navigator.er.usgs.gov/browse/node/1946672/history","name":"Perry Village Police Department","version":"2"}}
,{"type":"Feature","geometry":{"type":"Point","coordinates":[-73.8109723,40.9555401]},"properties":{"link":"https://navigator.er.usgs.gov/browse/node/1946687/history","name":"Eastchester Police Department","version":"2"}}
,{"type":"Feature","geometry":{"type":"Point","coordinates":[-75.4553567,43.2135155]},"properties":{"link":"https://navigator.er.usgs.gov/browse/node/1946809/history","name":"Rome Police Department","version":"2"}}
,{"type":"Feature","geometry":{"type":"Point","coordinates":[-73.9653682,41.370571]},"properties":{"link":"https://navigator.er.usgs.gov/browse/node/1946922/history","name":"Highland Falls Police Department","version":"2"}}
,{"type":"Feature","geometry":{"type":"Point","coordinates":[-74.1093975,41.11141]},"properties":{"link":"https://navigator.er.usgs.gov/browse/node/1946972/history","name":"Ramapo Police Department","version":"2"}}
,{"type":"Feature","geometry":{"type":"Point","coordinates":[-78.8793093,42.884557]},"properties":{"link":"https://navigator.er.usgs.gov/browse/node/1947008/history","name":"Erie County Sheriff's Office","version":"2"}}
,{"type":"Feature","geometry":{"type":"Point","coordinates":[-74.0025678,41.9766289]},"properties":{"link":"https://navigator.er.usgs.gov/browse/node/1947063/history","name":"Town Of Ulster Police","version":"2"}}
,{"type":"Feature","geometry":{"type":"Point","coordinates":[-73.9102861,41.7895529]},"properties":{"link":"https://navigator.er.usgs.gov/browse/node/1947093/history","name":"Hyde Park Police Department","version":"2"}}
,{"type":"Feature","geometry":{"type":"Point","coordinates":[-73.92197,41.29046]},"properties":{"link":"https://navigator.er.usgs.gov/browse/node/1947100/history","name":"Peekskill Police Department","version":"2"}}
,{"type":"Feature","geometry":{"type":"Point","coordinates":[-73.9280908,42.8678024]},"properties":{"link":"https://navigator.er.usgs.gov/browse/node/1947123/history","name":"Glenville Police Department","version":"2"}}
,{"type":"Feature","geometry":{"type":"Point","coordinates":[-78.7806734,43.0177014]},"properties":{"link":"https://navigator.er.usgs.gov/browse/node/1947166/history","name":"Amherst Police Department","version":"2"}}
,{"type":"Feature","geometry":{"type":"Point","coordinates":[-76.34193,42.98242]},"properties":{"link":"https://navigator.er.usgs.gov/browse/node/1947191/history","name":"Marcellus Police Dept","version":"2"}}
,{"type":"Feature","geometry":{"type":"Point","coordinates":[-75.0641674,42.4511142]},"properties":{"link":"https://navigator.er.usgs.gov/browse/node/1947192/history","name":"Oneonta Police Department","version":"2"}}
,{"type":"Feature","geometry":{"type":"Point","coordinates":[-74.6817327,41.6543529]},"properties":{"link":"https://navigator.er.usgs.gov/browse/node/1947228/history","name":"Monticello Police Department","version":"2"}}
,{"type":"Feature","geometry":{"type":"Point","coordinates":[-73.6092568,42.5120659]},"properties":{"link":"https://navigator.er.usgs.gov/browse/node/1947303/history","name":"Village of Nassau Police Department","version":"2"}}
,{"type":"Feature","geometry":{"type":"Point","coordinates":[-74.6726749,44.9760448]},"properties":{"link":"https://navigator.er.usgs.gov/browse/node/1947314/history","name":"St Regis Mohawk Tribal Police","version":"2"}}
,{"type":"Feature","geometry":{"type":"Point","coordinates":[-78.4767043,43.2123075]},"properties":{"link":"https://navigator.er.usgs.gov/browse/node/1947328/history","name":"Middleport Police Department","version":"2"}}
,{"type":"Feature","geometry":{"type":"Point","coordinates":[-75.4997205,43.7784536]},"properties":{"link":"https://navigator.er.usgs.gov/browse/node/1947396/history","name":"Lewis County Sheriff's Office","version":"2"}}
,{"type":"Feature","geometry":{"type":"Point","coordinates":[-74.9868795,44.7991095]},"properties":{"link":"https://navigator.er.usgs.gov/browse/node/1947458/history","name":"Norfolk Police Department","version":"2"}}
,{"type":"Feature","geometry":{"type":"Point","coordinates":[-73.7776242,41.0963364]},"properties":{"link":"https://navigator.er.usgs.gov/browse/node/1947520/history","name":"Mount Pleasant Police Department","version":"2"}}
,{"type":"Feature","geometry":{"type":"Point","coordinates":[-76.1785205,42.59916]},"properties":{"link":"https://navigator.er.usgs.gov/browse/node/1947593/history","name":"Cortland Police Department","version":"2"}}
,{"type":"Feature","geometry":{"type":"Point","coordinates":[-73.9578024,41.4179793]},"properties":{"link":"https://navigator.er.usgs.gov/browse/node/1947618/history","name":"Cold Spring Police Department","version":"2"}}
,{"type":"Feature","geometry":{"type":"Point","coordinates":[-75.4802317,42.2946317]},"properties":{"link":"https://navigator.er.usgs.gov/browse/node/1947692/history","name":"Bainbridge Police Department","version":"2"}}
,{"type":"Feature","geometry":{"type":"Point","coordinates":[-77.6119489,43.1518804]},"properties":{"link":"https://navigator.er.usgs.gov/browse/node/1947796/history","name":"Rochester Police Department","version":"2"}}
,{"type":"Feature","geometry":{"type":"Point","coordinates":[-74.8555291,43.0446445]},"properties":{"link":"https://navigator.er.usgs.gov/browse/node/1947803/history","name":"Little Falls City Police Department","version":"2"}}
,{"type":"Feature","geometry":{"type":"Point","coordinates":[-73.724195,40.9977797]},"properties":{"link":"https://navigator.er.usgs.gov/browse/node/1947815/history","name":"Harrison Police Department","version":"2"}}
,{"type":"Feature","geometry":{"type":"Point","coordinates":[-73.8878362,41.2081661]},"properties":{"link":"https://navigator.er.usgs.gov/browse/node/1947818/history","name":"Croton-On-Hudson Police Department","version":"2"}}
,{"type":"Feature","geometry":{"type":"Point","coordinates":[-74.1860039,41.1954362]},"properties":{"link":"https://navigator.er.usgs.gov/browse/node/1947822/history","name":"Tuxedo Park Police Department","version":"2"}}
,{"type":"Feature","geometry":{"type":"Point","coordinates":[-73.7884072,41.0412524]},"properties":{"link":"https://navigator.er.usgs.gov/browse/node/1947834/history","name":"Greenburgh Police Department","version":"2"}}
,{"type":"Feature","geometry":{"type":"Point","coordinates":[-73.9004239,40.8439562]},"properties":{"link":"https://navigator.er.usgs.gov/browse/node/1947851/history","name":"New York Police Department Bronx 48th Precinct","version":"2"}}
,{"type":"Feature","geometry":{"type":"Point","coordinates":[-74.3366423,41.2698276]},"properties":{"link":"https://navigator.er.usgs.gov/browse/node/1947879/history","name":"Warwick Police Department","version":"2"}}
,{"type":"Feature","geometry":{"type":"Point","coordinates":[-75.1693368,44.5987451]},"properties":{"link":"https://navigator.er.usgs.gov/browse/node/1947892/history","name":"St. Lawrence County Sheriff's Office","version":"2"}}
,{"type":"Feature","geometry":{"type":"Point","coordinates":[-78.4897024,42.0866822]},"properties":{"link":"https://navigator.er.usgs.gov/browse/node/1947940/history","name":"Allegany Police Department","version":"2"}}
,{"type":"Feature","geometry":{"type":"Point","coordinates":[-73.6371517,43.2953575]},"properties":{"link":"https://navigator.er.usgs.gov/browse/node/1947984/history","name":"South Glens Falls Police Department","version":"2"}}
,{"type":"Feature","geometry":{"type":"Point","coordinates":[-73.8506823,43.0019401]},"properties":{"link":"https://navigator.er.usgs.gov/browse/node/1948049/history","name":"Ballston Spa Police Department","version":"2"}}
,{"type":"Feature","geometry":{"type":"Point","coordinates":[-74.33396,42.93541]},"properties":{"link":"https://navigator.er.usgs.gov/browse/node/1948077/history","name":"Montgomery County Sheriff","version":"2"}}
,{"type":"Feature","geometry":{"type":"Point","coordinates":[-75.3330372,43.1578367]},"properties":{"link":"https://navigator.er.usgs.gov/browse/node/1948101/history","name":"Oriskany Village Police Department","version":"2"}}
,{"type":"Feature","geometry":{"type":"Point","coordinates":[-74.0844583,41.7465378]},"properties":{"link":"https://navigator.er.usgs.gov/browse/node/1948106/history","name":"New Paltz Police Dept","version":"2"}}
,{"type":"Feature","geometry":{"type":"Point","coordinates":[-73.9642149,41.7172297]},"properties":{"link":"https://navigator.er.usgs.gov/browse/node/1948176/history","name":"Lloyd Police Department","version":"2"}}
,{"type":"Feature","geometry":{"type":"Point","coordinates":[-73.8200864,41.0538509]},"properties":{"link":"https://navigator.er.usgs.gov/browse/node/1948272/history","name":"Elmsford Village Police Department","version":"2"}}
,{"type":"Feature","geometry":{"type":"Point","coordinates":[-77.2375801,42.1036375]},"properties":{"link":"https://navigator.er.usgs.gov/browse/node/1948300/history","name":"Addison Police Department","version":"2"}}
,{"type":"Feature","geometry":{"type":"Point","coordinates":[-78.8385396,42.914415]},"properties":{"link":"https://navigator.er.usgs.gov/browse/node/1948328/history","name":"Buffalo Police Department C District","version":"2"}}
,{"type":"Feature","geometry":{"type":"Point","coordinates":[-73.9784574,41.5080229]},"properties":{"link":"https://navigator.er.usgs.gov/browse/node/1948342/history","name":"Beacon Police Department","version":"2"}}
,{"type":"Feature","geometry":{"type":"Point","coordinates":[-74.9860615,43.0269001]},"properties":{"link":"https://navigator.er.usgs.gov/browse/node/1948343/history","name":"Herkimer Police Department","version":"2"}}
,{"type":"Feature","geometry":{"type":"Point","coordinates":[-75.526886,42.2316471]},"properties":{"link":"https://navigator.er.usgs.gov/browse/node/1948367/history","name":"Afton Village Police Dept","version":"2"}}
,{"type":"Feature","geometry":{"type":"Point","coordinates":[-73.8640666,42.2175851]},"properties":{"link":"https://navigator.er.usgs.gov/browse/node/1948379/history","name":"Greene County Sheriff's Office","version":"2"}}
,{"type":"Feature","geometry":{"type":"Point","coordinates":[-73.6989387,43.3620215]},"properties":{"link":"https://navigator.er.usgs.gov/browse/node/1948422/history","name":"Warren County Sheriff's Office","version":"2"}}
,{"type":"Feature","geometry":{"type":"Point","coordinates":[-74.37478,41.4668017]},"properties":{"link":"https://navigator.er.usgs.gov/browse/node/1948525/history","name":"Wallkill Police department","version":"2"}}
,{"type":"Feature","geometry":{"type":"Point","coordinates":[-74.0117249,41.1941061]},"properties":{"link":"https://navigator.er.usgs.gov/browse/node/1948546/history","name":"Haverstraw Town Police Department","version":"2"}}
,{"type":"Feature","geometry":{"type":"Point","coordinates":[-74.6893635,42.1268451]},"properties":{"link":"https://navigator.er.usgs.gov/browse/node/1948564/history","name":"New York State Police Department Troop C Zone 1 ","version":"2"}}
,{"type":"Feature","geometry":{"type":"Point","coordinates":[-75.42565,42.06074]},"properties":{"link":"https://navigator.er.usgs.gov/browse/node/1948585/history","name":"Deposit Police Dept","version":"2"}}
,{"type":"Feature","geometry":{"type":"Point","coordinates":[-76.266296,42.1420471]},"properties":{"link":"https://navigator.er.usgs.gov/browse/node/1948661/history","name":"Tioga County Sheriff's Office","version":"2"}}
,{"type":"Feature","geometry":{"type":"Point","coordinates":[-74.5747821,42.9064234]},"properties":{"link":"https://navigator.er.usgs.gov/browse/node/1948669/history","name":"Canajoharie Police Department","version":"2"}}
,{"type":"Feature","geometry":{"type":"Point","coordinates":[-73.9112574,40.8224769]},"properties":{"link":"https://navigator.er.usgs.gov/browse/node/1948705/history","name":"New York Police Department Bronx 42nd Precinct","version":"2"}}
,{"type":"Feature","geometry":{"type":"Point","coordinates":[-72.3936822,40.8877533]},"properties":{"link":"https://navigator.er.usgs.gov/browse/node/1948717/history","name":"Southampton Village Police Department","version":"2"}}
,{"type":"Feature","geometry":{"type":"Point","coordinates":[-78.8952846,42.6522089]},"properties":{"link":"https://navigator.er.usgs.gov/browse/node/1948727/history","name":"Eden Police Department","version":"2"}}
,{"type":"Feature","geometry":{"type":"Point","coordinates":[-74.1628594,41.3295903]},"properties":{"link":"https://navigator.er.usgs.gov/browse/node/1948734/history","name":"New York State Police Department","version":"2"}}
,{"type":"Feature","geometry":{"type":"Point","coordinates":[-74.6910775,41.3750656]},"properties":{"link":"https://navigator.er.usgs.gov/browse/node/1948737/history","name":"Port Jervis Police Department","version":"2"}}
,{"type":"Feature","geometry":{"type":"Point","coordinates":[-74.0160726,41.9125934]},"properties":{"link":"https://navigator.er.usgs.gov/browse/node/1948759/history","name":"Ulster County Sheriff's Office","version":"2"}}
,{"type":"Feature","geometry":{"type":"Point","coordinates":[-73.7007308,42.7098367]},"properties":{"link":"https://navigator.er.usgs.gov/browse/node/1948833/history","name":"Rensselaer County Sheriff Dept","version":"2"}}
,{"type":"Feature","geometry":{"type":"Point","coordinates":[-74.7706478,43.1033565]},"properties":{"link":"https://navigator.er.usgs.gov/browse/node/1948878/history","name":"Dolgeville Police Department","version":"2"}}
,{"type":"Feature","geometry":{"type":"Point","coordinates":[-74.1098164,41.8490876]},"properties":{"link":"https://navigator.er.usgs.gov/browse/node/1980780/history","name":"ROSENDALE POLICE STATION","version":"2"}}
,{"type":"Feature","geometry":{"type":"Point","coordinates":[-76.5292006,42.0077438]},"properties":{"link":"https://navigator.er.usgs.gov/browse/node/1720793/history","name":"Waverly Police Station","version":"2"}}
,{"type":"Feature","geometry":{"type":"Point","coordinates":[-73.3828674,42.4713411]},"properties":{"link":"https://navigator.er.usgs.gov/browse/node/2087646/history","name":"NYS Police Barracks-New Lebanon","version":"2"}}
,{"type":"Feature","geometry":{"type":"Point","coordinates":[-73.5225174,42.1795999]},"properties":{"link":"https://navigator.er.usgs.gov/browse/node/2084912/history","name":"Columbia County Sherriff Dept. Hillsdale Station","version":"1"}}
,{"type":"Feature","geometry":{"type":"Point","coordinates":[-77.7201255,42.7807933]},"properties":{"link":"https://navigator.er.usgs.gov/browse/node/2086437/history","name":"Livingston County Sheriffâ€™s Department Marine Patrol","version":"1"}}
,{"type":"Feature","geometry":{"type":"Point","coordinates":[-77.7033768,42.834869]},"properties":{"link":"https://navigator.er.usgs.gov/browse/node/2086438/history","name":"Livingston County Sheriffâ€™s Department Marine Patrol","version":"1"}}
,{"type":"Feature","geometry":{"type":"Point","coordinates":[-75.9541592,42.1159555]},"properties":{"link":"https://navigator.er.usgs.gov/browse/node/2093258/history","name":"Johnson City Police Department","version":"1"}}
,{"type":"Feature","geometry":{"type":"Point","coordinates":[-76.9345572,42.1414934]},"properties":{"link":"https://navigator.er.usgs.gov/browse/node/2093877/history","name":"Big Flats State Police","version":"1"}}
,{"type":"Feature","geometry":{"type":"Point","coordinates":[-74.9106716,42.2916954]},"properties":{"link":"https://navigator.er.usgs.gov/browse/node/2094102/history","name":"Deleware County Sheriff's Office","version":"1"}}
,{"type":"Feature","geometry":{"type":"Point","coordinates":[-73.9854886,41.9209841]},"properties":{"link":"https://navigator.er.usgs.gov/browse/node/2094146/history","name":"Kingston Police Department","version":"1"}}
]}
